{
  "01": {
    "state": "AL",
    "name": "Alabama",
    "lat": 32.318230,
    "lng": -86.902298
  },
  "02": {
    "state": "AK",
    "name": "Alaska",
    "lat": 66.160507,
    "lng": -153.369141
  },
  "04": {
    "state": "AZ",
    "name": "Arizona",
    "lat": 34.048927,
    "lng": -111.093735
  },
  "05": {
    "state": "AR",
    "name": "Arkansas",
    "lat": 34.799999,
    "lng": -92.199997
  },
  "06": {
    "state": "CA",
    "name": "California",
    "lat": 36.778259,
    "lng": -119.417931
  },
  "08": {
    "state": "CO",
    "name": "Colorado",
    "lat": 39.113014,
    "lng": -105.358887
  },
  "09": {
    "state": "CT",
    "name": "Connecticut",
    "lat": 41.599998,
    "lng": -72.699997
  },
  "10": {
    "state": "DE",
    "name": "Delaware",
    "lat": 39.000000,
    "lng": -75.500000
  },
  "11": {
    "state": "DC",
    "name": "District of Columbia",
    "lat": 38.8951,
    "lng": -77.0364
  },
  "12": {
    "state": "FL",
    "name": "Florida",
    "lat": 27.994402,
    "lng": -81.760254
  },
  "13": {
    "state": "GA",
    "name": "Georgia",
    "lat": 33.247875,
    "lng": -83.441162
  },
  "15": {
    "state": "HI",
    "name": "Hawaii",
    "lat": 19.741755,
    "lng": -155.844437
  },
  "16": {
    "state": "ID",
    "name": "Idaho",
    "lat": 44.068203,
    "lng": -114.742043
  },
  "17": {
    "state": "IL",
    "name": "Illinois",
    "lat": 40.000000,
    "lng": -89.000000
  },
  "18": {
    "state": "IN",
    "name": "Indiana",
    "lat": 40.273502,
    "lng": -86.126976
  },
  "19": {
    "state": "IA",
    "name": "Iowa",
    "lat": 42.032974,
    "lng": -93.581543
  },
  "20": {
    "state": "KS",
    "name": "Kansas",
    "lat": 38.500000,
    "lng": -98.000000
  },
  "21": {
    "state": "KY",
    "name": "Kentucky",
    "lat": 37.839333,
    "lng": -84.270020
  },
  "22": {
    "state": "LA",
    "name": "Louisiana",
    "lat": 30.391830,
    "lng": -92.329102
  },
  "23": {
    "state": "ME",
    "name": "Maine",
    "lat": 45.367584,
    "lng": -68.972168
  },
  "24": {
    "state": "MD",
    "name": "Maryland",
    "lat": 39.045753,
    "lng": -76.641273
  },
  "25": {
    "state": "MA",
    "name": "Massachusetts",
    "lat": 42.407211,
    "lng": -71.382439
  },
  "26": {
    "state": "MI",
    "name": "Michigan",
    "lat": 44.182205,
    "lng": -84.506836
  },
  "27": {
    "state": "MN",
    "name": "Minnesota",
    "lat": 46.392410,
    "lng": -94.636230
  },
  "28": {
    "state": "MS",
    "name": "Mississippi",
    "lat": 33.000000,
    "lng": -90.000000
  },
  "29": {
    "state": "MO",
    "name": "Missouri",
    "lat": 38.573936,
    "lng": -92.603760
  },
  "30": {
    "state": "MT",
    "name": "Montana",
    "lat": 46.965260,
    "lng": -109.533691
  },
  "31": {
    "state": "NE",
    "name": "Nebraska",
    "lat": 41.500000,
    "lng": -100.000000
  },
  "32": {
    "state": "NV",
    "name": "Nevada",
    "lat": 39.876019,
    "lng": -117.224121
  },
  "33": {
    "state": "NH",
    "name": "New Hampshire",
    "lat": 44.000000,
    "lng": -71.500000
  },
  "34": {
    "state": "NJ",
    "name": "New Jersey",
    "lat": 39.833851,
    "lng": -74.871826
  },
  "35": {
    "state": "NM",
    "name": "New Mexico",
    "lat": 34.307144,
    "lng": -106.018066
  },
  "36": {
    "state": "NY",
    "name": "New York",
    "lat": 43.000000,
    "lng": -75.000000
  },
  "37": {
    "state": "NC",
    "name": "North Carolina",
    "lat": 35.782169,
    "lng": -80.793457
  },
  "38": {
    "state": "ND",
    "name": "North Dakota",
    "lat": 47.650589,
    "lng": -100.437012
  },
  "39": {
    "state": "OH",
    "name": "Ohio",
    "lat": 40.367474,
    "lng": -82.996216
  },
  "40": {
    "state": "OK",
    "name": "Oklahoma",
    "lat": 36.084621,
    "lng": -96.921387
  },
  "41": {
    "state": "OR",
    "name": "Oregon",
    "lat": 44.000000,
    "lng": -120.500000
  },
  "42": {
    "state": "PA",
    "name": "Pennsylvania",
    "lat": 41.203323,
    "lng": -77.194527
  },
  "44": {
    "state": "RI",
    "name": "Rhode Island",
    "lat": 41.742325,
    "lng": -71.742332
  },
  "45": {
    "state": "SC",
    "name": "South Carolina",
    "lat": 33.836082,
    "lng": -81.163727
  },
  "46": {
    "state": "SD",
    "name": "South Dakota",
    "lat": 44.500000,
    "lng": -100.000000
  },
  "47": {
    "state": "TN",
    "name": "Tennessee",
    "lat": 35.860119,
    "lng": -86.660156
  },
  "48": {
    "state": "TX",
    "name": "Texas",
    "lat": 31.000000,
    "lng": -100.000000
  },
  "49": {
    "state": "UT",
    "name": "Utah",
    "lat": 39.419220,
    "lng": -111.950684
  },
  "50": {
    "state": "VT",
    "name": "Vermont",
    "lat": 44.000000,
    "lng": -72.699997
  },
  "51": {
    "state": "VA",
    "name": "Virginia",
    "lat": 37.926868,
    "lng": -78.024902
  },
  "53": {
    "state": "WA",
    "name": "Washington",
    "lat": 47.751076,
    "lng": -120.740135
  },
  "54": {
    "state": "WV",
    "name": "West Virginia",
    "lat": 39.000000,
    "lng": -80.500000
  },
  "55": {
    "state": "WI",
    "name": "Wisconsin",
    "lat": 44.500000,
    "lng": -89.500000
  },
  "56": {
    "state": "WY",
    "name": "Wyoming",
    "lat": 43.075970,
    "lng": -107.290283
  },
  "69": {
    "state": "MP",
    "name": "Northern Mariana Islands",
    "lat": 15.1063,
    "lng": 145.7065
  },
  "72": {
    "state": "PR",
    "name": "Puerto Rico",
    "lat": 18.4655,
    "lng": -66.1057
  }
}
